{"name":"AOABPA301","lat":45.954846393,"lon":-130.0092528089,"type":"instrument"}
{"name":"BOTPTA301","lat":45.9548502993,"lon":-130.008772237,"type":"instrument"}
{"name":"BOTPTA302","lat":45.9398586157,"lon":-129.9741695034,"type":"instrument"}
{"name":"BOTPTA303","lat":45.9257904198,"lon":-129.9774993925,"type":"instrument"}
{"name":"BOTPTA304","lat":45.9336378528,"lon":-130.0138973642,"type":"instrument"}
{"name":"CAMDSB303","lat":45.9262418909,"lon":-129.9791023203,"type":"camera"}
{"name":"CAMHDA301","lat":45.933643,"lon":-130.013636,"type":"camera"}
{"name":"COVISA301","lat":45.933599,"lon":-130.013557,"type":"instrument"}
{"name":"CTDPFB304","lat":45.933768,"lon":-130.013843,"type":"instrument"}
{"name":"HYDLFA304","lat":45.9396691938,"lon":-129.9737890443,"type":"instrument"}
{"name":"HYDLFA305","lat":45.9546801627,"lon":-130.0089917311,"type":"instrument"}
{"name":"MJ03B","lat":45.933738,"lon":-130.013899,"type":"node"}
{"name":"MJ03C","lat":45.9262585783,"lon":-129.9789410482,"type":"node"}
{"name":"MJ03D","lat":45.9258408118,"lon":-129.9776086552,"type":"node"}
{"name":"MJ03E","lat":45.9398338223,"lon":-129.9742144951,"type":"node"}
{"name":"MJ03F","lat":45.9548613069,"lon":-130.0090129036,"type":"node"}
{"name":"OBSBBA301","lat":45.9546826351,"lon":-130.0089793289,"type":"instrument"}
{"name":"OBSBBA302","lat":45.9396709051,"lon":-129.9737763844,"type":"instrument"}
{"name":"OBSSPA301","lat":45.9335545023,"lon":-129.9992349396,"type":"instrument"}
{"name":"OBSSPA302","lat":45.9337345202,"lon":-130.0141024932,"type":"instrument"}
{"name":"OBSSPA303","lat":45.949577,"lon":-129.9797,"type":"instrument"}
{"name":"OBSSPA304","lat":45.93607,"lon":-129.978545,"type":"instrument"}
{"name":"OBSSPA305","lat":45.9257203313,"lon":-129.9780313536,"type":"instrument"}
{"name":"PN3B","lat":45.941273,"lon":-129.969737,"type":"node"}
{"name":"RASFLA301_PPSDNA301","lat":45.9262617912,"lon":-129.979065702,"type":"instrument"}
{"name":"SCPRAA301","lat":45.9548288492,"lon":-130.0092399512,"type":"instrument"}
{"name":"SCTAAA301","lat":45.955000659,"lon":-130.0087450005,"type":"instrument"}
{"name":"THSPHA301","lat":45.9263729238,"lon":-129.9790607852,"type":"instrument"}
{"name":"TMPSFA301","lat":45.93365,"lon":-130.01369,"type":"instrument"}
{"name":"TRHPHA301","lat":45.9263616416,"lon":-129.9792096628,"type":"instrument"}
{"name":"VEL3DB304","lat":45.9257947638,"lon":-129.977580555,"type":"instrument"}
{"name":"VentCap","lat":45.9262418909,"lon":-129.9791023203,"type":"extention"}